City_ID,City,Lat,Lng,Max Temp,Humidity,Cloudiness,Wind Speed,Country,Date
0,waitangi,-43.9535,-176.5597,14.9,74,100,1.79,NZ,1738873685
1,afaahiti,-17.75,-149.2833,25.89,79,36,5.99,PF,1738873686
2,nova vicosa,-17.8919,-39.3719,27.08,70,100,2.94,BR,1738873687
3,vilyuysk,63.7553,121.6247,-37.54,98,8,2.19,RU,1738873688
4,edinburgh of the seven seas,-37.0676,-12.3116,16.58,87,44,10.07,SH,1738873690
5,natchez,31.5604,-91.4032,27.12,57,0,6.17,US,1738873691
6,acapulco de juarez,16.8634,-99.8901,28.9,70,40,3.6,MX,1738873396
7,kapa'a,22.0752,-159.319,24.18,81,0,1.54,US,1738873694
8,trairi,-3.2778,-39.2689,27.2,78,48,5.8,BR,1738873696
9,la'ie,21.6477,-157.9253,24.97,78,7,1.79,US,1738873699
10,port mathurin,-19.6833,63.4167,27.74,79,13,5.07,MU,1738873701
11,ebon,4.582,168.6964,27.57,78,65,9.53,MH,1738873703
12,papatowai,-46.5619,169.4708,12.78,73,21,4.46,NZ,1738873705
13,dakhla,23.6848,-15.958,17.01,67,0,4.12,EH,1738873707
14,jatai,-17.8814,-51.7144,25.75,70,98,1.72,BR,1738873708
15,yellowknife,62.456,-114.3525,-16.71,60,100,8.75,CA,1738873709
16,wakkanai,45.4094,141.6739,1.07,81,99,12.75,JP,1738873710
17,baki,-7.6128,110.7839,23.12,96,100,1.07,ID,1738873713
18,arkhangel'sk,64.5401,40.5433,-4.94,100,100,4.0,RU,1738873714
19,port-aux-francais,-49.35,70.2167,6.06,83,100,8.75,TF,1738873716
20,iqaluit,63.7506,-68.5145,-30.15,61,20,1.03,CA,1738873717
21,praia da vitoria,38.7333,-27.0667,18.14,77,40,6.35,PT,1738873719
22,aitape,-3.1374,142.3475,25.37,87,88,1.43,PG,1738873720
23,tura,25.5198,90.2201,14.37,49,0,1.26,IN,1738873721
24,bethel,41.3712,-73.414,1.67,88,100,0.64,US,1738873723
25,bardsir,29.9227,56.5743,7.1,52,96,6.49,IR,1738873724
26,fale old settlement,-9.3852,-171.2468,28.05,78,78,7.65,TK,1738873726
27,roshal',55.6685,39.8749,-4.97,76,16,2.17,RU,1738873727
28,whitehorse,60.7161,-135.0538,-12.57,92,75,3.6,CA,1738873256
29,griffith,41.5284,-87.4237,2.19,72,40,7.72,US,1738873729
30,winnemucca,40.973,-117.7357,3.03,48,75,2.06,US,1738873730
31,margate,51.3813,1.3862,6.6,77,100,1.79,GB,1738873732
32,suva,-18.1416,178.4415,26.71,89,75,1.54,FJ,1738873733
33,isiolo,0.3546,37.5822,22.94,53,62,2.23,KE,1738873734
34,lihue,21.9789,-159.3672,23.77,73,0,1.54,US,1738873736
35,adamstown,-25.066,-130.1015,25.01,78,100,4.88,PN,1738873737
36,kerikeri,-35.2268,173.9474,18.62,72,56,1.08,NZ,1738873738
37,qarauyl,48.9451,79.255,-23.08,100,95,1.26,KZ,1738873740
38,mejit,10.2753,170.8646,26.45,75,63,6.87,MH,1738873743
39,kodiak,57.79,-152.4072,3.73,48,0,5.66,US,1738873744
40,susuman,62.7833,148.1667,-42.52,98,72,0.4,RU,1738873754
41,port lincoln,-34.7333,135.8667,18.9,73,100,6.49,AU,1738873756
42,ushuaia,-54.8,-68.3,9.81,53,75,10.8,AR,1738873757
43,tamanrasset,22.785,5.5228,17.95,24,40,2.57,DZ,1738873649
44,puerto natales,-51.7236,-72.4875,13.25,44,75,10.8,CL,1738873760
45,florence,43.7667,11.25,9.19,57,0,1.03,IT,1738873762
46,tianshui,34.5439,105.6897,-3.41,35,88,1.84,CN,1738873764
47,albany,42.6001,-73.9662,0.32,88,100,1.79,US,1738873765
48,kill devil hills,36.0307,-75.676,12.21,83,40,5.14,US,1738873770
49,kone,-21.0595,164.8658,26.05,87,95,3.79,NC,1738873772
50,parry sound,45.3501,-80.033,-4.97,86,100,5.79,CA,1738873773
51,vorgashor,67.5833,63.95,-10.26,93,100,7.94,RU,1738873774
52,saudarkrokur,65.7461,-19.6394,-0.86,87,75,12.21,IS,1738873775
53,ilulissat,69.2167,-51.1,-24.99,64,20,2.57,GL,1738873777
54,ouargla,31.9493,5.325,14.04,51,20,4.63,DZ,1738873778
55,miranda do douro,41.4969,-6.2731,4.5,72,100,1.79,PT,1738873779
56,thompson,55.7435,-97.8558,-10.91,79,100,4.12,CA,1738873781
57,grytviken,-54.2811,-36.5092,3.36,85,26,0.28,GS,1738873783
58,port alfred,-33.5906,26.891,21.21,80,100,1.79,ZA,1738873784
59,west island,-12.1568,96.8225,27.99,83,20,9.26,CC,1738873785
60,ust-nera,64.5667,143.2,-40.74,99,66,1.3,RU,1738873787
61,kununurra,-15.7667,128.7333,24.99,94,100,2.57,AU,1738873788
62,puerto baquerizo moreno,-0.9,-89.6,27.55,74,75,4.12,EC,1738873789
63,sharanga,57.1775,46.5396,-13.94,99,76,1.61,RU,1738873791
64,talnakh,69.4865,88.3972,-20.26,98,100,4.32,RU,1738873793
65,tual,-5.6667,132.75,28.27,77,100,8.62,ID,1738873794
66,chui,-33.6971,-53.4616,25.58,60,1,6.89,UY,1738873796
67,fort bragg,35.139,-79.006,22.04,61,0,4.63,US,1738873799
68,blackmans bay,-43.0167,147.3167,14.74,88,100,0.95,AU,1738873800
69,avarua,-21.2078,-159.775,28.03,89,75,5.14,CK,1738873803
70,puerto ayora,-0.7393,-90.3518,26.42,90,33,3.13,EC,1738873805
71,alta,69.9689,23.2717,5.59,65,75,5.14,NO,1738873806
72,dzuunmod,48.2199,97.3744,-24.88,89,13,2.5,MN,1738873808
73,udachny,66.4167,112.4,-22.24,100,99,1.68,RU,1738873809
74,alotau,-10.3069,150.4462,26.65,86,100,3.33,PG,1738873812
75,jamestown,42.097,-79.2353,2.23,97,100,8.23,US,1738873686
76,newman,37.3138,-121.0208,11.14,90,81,2.68,US,1738873816
77,viedma,-40.8135,-62.9967,29.58,15,0,3.39,AR,1738873817
78,san antonio de pale,-1.4014,5.6325,27.92,75,86,1.94,GQ,1738873820
79,kericho,-0.3677,35.2831,14.35,63,99,2.12,KE,1738873821
80,puerto deseado,-47.7503,-65.8938,14.99,48,62,8.99,AR,1738873823
81,ribeira grande,38.5167,-28.7,18.22,94,75,8.05,PT,1738873824
82,portage la prairie,49.9728,-98.2926,-10.95,62,40,9.26,CA,1738873825
83,road town,18.4167,-64.6167,26.02,73,40,6.17,VG,1738873826
84,el granada,37.5027,-122.4694,14.69,90,100,12.35,US,1738873828
85,wailua homesteads,22.0669,-159.378,23.44,81,0,1.54,US,1738873829
86,gadzhiyevo,69.2551,33.3362,2.97,80,100,14.71,RU,1738873831
87,longyearbyen,78.2186,15.6401,-0.09,93,100,4.63,SJ,1738873832
88,oppdal,62.5943,9.6912,-1.6,59,11,5.51,NO,1738873834
89,murun-kuren,49.6342,100.1625,-25.51,95,20,0.59,MN,1738873835
90,al mijlad,11.0333,27.7333,23.31,15,15,6.99,SD,1738873837
91,bilibino,68.0546,166.4372,-43.16,99,67,0.49,RU,1738873841
92,nadym,65.5333,72.5167,-12.73,92,100,4.79,RU,1738873842
93,san luis de la loma,17.2706,-100.8939,29.35,56,2,4.1,MX,1738873844
94,ugoofaaru,5.6667,73.0,27.84,72,7,8.69,MV,1738873846
95,laguna,38.421,-121.4238,11.7,91,100,5.66,US,1738873847
96,niksic,42.7731,18.9445,1.74,58,1,2.14,ME,1738873850
97,guerrero negro,27.9769,-114.0611,18.95,67,1,7.89,MX,1738873852
98,hwange,-18.3693,26.5019,22.59,74,14,1.32,ZW,1738873854
99,khartoum,15.5518,32.5324,24.76,15,0,8.63,SD,1738873856
100,nova sintra,14.8667,-24.7167,22.65,73,0,8.51,CV,1738873857
101,toliara,-23.35,43.6667,26.18,84,83,2.18,MG,1738873860
102,tiksi,71.6872,128.8694,-30.46,98,39,3.32,RU,1738873861
103,ampanihy,-24.7,44.75,24.2,92,73,0.83,MG,1738873862
104,nolinsk,57.5596,49.9363,-16.17,100,100,0.32,RU,1738873864
105,lerwick,60.1545,-1.1494,7.01,89,38,6.72,GB,1738873867
106,ciudad bolivar,8.1222,-63.5497,35.42,25,71,5.09,VE,1738873868
107,tupancireta,-29.0806,-53.8358,36.81,23,85,6.35,BR,1738873870
108,kruisfontein,-34.0033,24.7314,17.98,91,100,5.93,ZA,1738873871
109,laojunmiao,39.8333,97.7333,-11.74,52,58,2.42,CN,1738873872
110,las heras,-46.5419,-68.9359,19.47,14,84,10.25,AR,1738873874
111,marka,1.7159,44.7717,24.36,90,100,7.33,SO,1738873877
112,kostomuksha,64.571,30.5767,-3.46,83,63,6.01,RU,1738873879
113,invercargill,-46.4,168.35,13.34,86,26,2.24,NZ,1738873815
114,buala,-8.145,159.5921,27.69,78,83,2.26,SB,1738873881
115,dubbo,-32.25,148.6167,20.07,88,0,3.6,AU,1738873883
116,taroa,8.7058,171.2275,26.74,81,74,8.43,MH,1738873885
117,martuk,50.7475,56.5056,-11.99,89,83,5.55,KZ,1738873886
118,mundri,-6.9558,111.71,23.46,96,100,1.08,ID,1738873888
119,alamos,27.0167,-108.9333,31.29,13,0,2.78,MX,1738873891
120,akureyri,65.6835,-18.0878,2.96,48,75,10.8,IS,1738873893
121,chissamba,-12.1667,17.3333,16.91,93,100,0.67,AO,1738873894
122,macheng,31.1783,115.0319,1.91,38,3,5.95,CN,1738873896
123,utrik,11.2278,169.8474,26.23,76,18,7.2,MH,1738873897
124,baicheng,45.6167,122.8167,-15.64,73,100,6.32,CN,1738873898
125,iskateley,67.6803,53.1512,-5.01,91,100,8.38,RU,1738873900
126,selfoss,63.9331,-20.9971,1.14,63,100,13.61,IS,1738873901
127,hobyo,5.3505,48.5268,24.23,89,13,5.6,SO,1738873903
128,narrabri,-30.3167,149.7833,24.18,66,0,3.19,AU,1738873904
129,crane,31.3974,-102.3501,27.29,11,0,2.19,US,1738873905
130,howrah,22.5892,88.3103,22.0,64,0,3.6,IN,1738873907
131,ancud,-41.8697,-73.8203,15.4,54,2,3.64,CL,1738873908
132,st. john's,47.5649,-52.7093,-4.56,74,100,6.17,CA,1738873804
133,nouadhibou,20.931,-17.0347,19.99,73,0,6.17,MR,1738873910
134,usogorsk,63.4106,48.6872,-6.92,95,46,3.33,RU,1738873912
135,neryungri,56.6709,124.6491,-31.09,98,100,2.13,RU,1738873913
136,xiaoweizhai,26.1903,107.5125,2.78,98,100,2.48,CN,1738873914
137,koratla,18.8167,78.7167,22.91,46,2,1.26,IN,1738873916
138,kourou,5.1552,-52.6478,24.39,93,100,2.87,GF,1738873917
139,bredasdorp,-34.5322,20.0403,18.81,79,6,3.51,ZA,1738873920
140,hengshui,37.7322,115.7011,-11.81,19,0,7.74,CN,1738873921
141,aasiaat,68.7098,-52.8699,-30.35,100,99,2.28,GL,1738873923
142,hawaiian paradise park,19.5933,-154.9731,23.28,89,100,1.54,US,1738873924
143,kennett,36.2362,-90.0556,10.97,100,100,9.26,US,1738873925
144,keflavik,64.0049,-22.5624,0.24,80,75,14.4,IS,1738873926
145,olonkinbyen,70.9221,-8.7187,-0.43,86,91,27.21,SJ,1738873928
146,liptovsky hradok,49.0396,19.7234,-1.4,88,100,1.14,SK,1738873930
147,northam,51.0333,-4.2167,3.22,83,2,1.34,GB,1738873931
148,nicoya,10.1483,-85.452,32.45,44,36,5.9,CR,1738873933
149,piedras negras,28.7,-100.5167,27.32,61,0,2.57,MX,1738873935
150,tsiombe,-25.3,45.4833,24.77,92,71,3.49,MG,1738873937
151,tobelo,1.7284,128.0095,26.45,80,100,1.23,ID,1738873938
152,peniche,39.3558,-9.3811,12.47,89,100,3.31,PT,1738873939
153,peterhead,57.5058,-1.7981,6.06,86,6,8.33,GB,1738873942
154,petropavlovsk-kamchatsky,53.0452,158.6483,-4.67,54,40,2.0,RU,1738873944
155,lebu,-37.6167,-73.65,17.46,72,0,8.09,CL,1738873946
156,dudinka,69.4058,86.1778,-17.85,96,99,6.24,RU,1738873947
157,tianpeng,30.9866,103.9393,5.72,63,100,0.15,CN,1738873948
158,pont rouge,48.8833,-72.0825,-10.22,93,100,3.1,CA,1738873951
159,nantucket,41.2835,-70.0995,4.06,93,100,8.75,US,1738873687
160,quellon,-43.1167,-73.6167,14.37,58,31,2.67,CL,1738873954
161,vilyuchinsk,52.9306,158.4028,-3.85,85,100,1.54,RU,1738873955
162,playa del ingles,27.7567,-15.5787,19.11,73,0,2.36,ES,1738873956
163,lazaro cardenas,17.9583,-102.2,28.38,59,0,4.65,MX,1738873959
164,tazovsky,67.4667,78.7,-15.94,96,100,4.23,RU,1738873960
165,atafu village,-8.5421,-172.5159,27.9,79,99,8.46,TK,1738873962
166,luganville,-15.5333,167.1667,27.36,74,79,2.62,VU,1738873963
167,vernon,50.2581,-119.2691,-9.48,57,49,1.03,CA,1738873803
168,caluula,11.9661,50.7569,23.12,72,46,4.58,SO,1738873967
169,antigonish,45.6169,-61.9986,-2.9,69,100,2.24,CA,1738873968
170,chibougamau,49.9168,-74.3659,-12.21,79,100,3.09,CA,1738873971
171,guia lopes da laguna,-21.4578,-56.1142,30.57,53,49,4.53,BR,1738873972
172,rakops,-21.0167,24.3333,31.21,34,99,5.58,BW,1738873973
173,cabo san lucas,22.8909,-109.9124,25.17,53,0,4.12,MX,1738873795
174,kingston,17.997,-76.7936,28.53,70,40,4.63,JM,1738873977
175,hamilton,39.1834,-84.5333,10.11,74,28,3.13,US,1738873979
176,punta arenas,-53.15,-70.9167,11.06,54,20,13.38,CL,1738873980
177,yaren,-0.5472,166.916,26.86,75,85,6.37,NR,1738873981
178,santa marinella,42.0345,11.8536,11.4,86,2,1.79,IT,1738873983
179,papao,-17.75,-149.55,29.82,78,21,7.17,PF,1738873984
180,port elizabeth,-33.918,25.5701,21.29,85,100,1.79,ZA,1738873985
181,inhambane,-23.865,35.3833,25.99,70,64,5.67,MZ,1738873987
182,uwajima,33.2238,132.56,1.71,76,100,2.26,JP,1738873989
183,gubakha,58.8386,57.5532,-15.47,98,100,0.89,RU,1738873990
184,biloela,-24.4167,150.5,22.19,83,27,4.18,AU,1738873993
185,el salto,20.3333,-104.5,29.62,16,0,0.35,MX,1738873994
186,imbituba,-28.24,-48.6703,24.36,84,100,2.87,BR,1738873996
187,itoman,26.1247,127.6694,11.21,93,100,7.2,JP,1738873997
188,quelimane,-17.8786,36.8883,23.78,97,100,1.99,MZ,1738873998
189,vung tau,10.346,107.0843,22.5,82,100,4.98,VN,1738874001
190,garoua boulai,5.8833,14.55,22.91,23,73,2.23,CM,1738874003
191,port saint john's,-31.6229,29.5448,22.07,91,100,4.64,ZA,1738874005
192,nenjiang,49.1833,125.2167,-12.59,85,100,8.38,CN,1738873819
193,kristiansund,63.1115,7.732,10.36,37,0,4.12,NO,1738874008
194,isafjordur,66.0755,-23.124,-2.79,77,55,17.87,IS,1738874009
195,hithadhoo,-0.6,73.0833,27.24,71,82,3.44,MV,1738874012
196,abra pampa,-22.7205,-65.697,17.32,33,53,8.13,AR,1738874013
197,college,64.8569,-147.8028,-7.03,73,100,0.0,US,1738873779
198,mount gambier,-37.8333,140.7667,17.09,85,55,3.03,AU,1738873810
199,stanley,54.868,-1.6985,-0.26,93,20,0.0,GB,1738874022
200,margaret river,-33.95,115.0667,16.83,80,51,5.82,AU,1738874023
201,xichang,27.8964,102.2634,4.63,69,90,1.98,CN,1738874024
202,danilov,58.1908,40.1717,-4.36,93,86,1.49,RU,1738874026
203,pinhao,-25.6956,-51.6597,20.44,95,94,2.1,BR,1738874027
204,wynyard,-41.0,145.7167,18.99,87,100,0.45,AU,1738874028
205,usinsk,65.9939,57.5281,-10.49,95,99,8.65,RU,1738874031
206,porto novo,6.4965,2.6036,28.9,81,44,4.32,BJ,1738874032
207,broken hill,-31.95,141.4333,30.69,29,56,2.68,AU,1738874034
208,preston,53.7667,-2.7167,4.62,92,0,3.16,GB,1738874035
209,cole harbour,44.6724,-63.4751,-1.69,72,100,8.75,CA,1738874037
210,malango,-2.9627,119.9001,18.92,92,100,1.33,ID,1738874038
211,colonia,50.9333,6.95,3.87,86,75,2.06,DE,1738874039
212,sao lourenco do sul,-31.3653,-51.9783,27.78,57,0,9.86,BR,1738874041
213,enewetak,11.3474,162.3373,26.73,73,62,7.33,MH,1738874042
214,bogdanovich,56.7803,62.0494,-14.93,99,92,1.69,RU,1738874043
215,mahina,-17.5065,-149.489,29.87,70,5,3.09,PF,1738874044
216,lorengau,-2.0226,147.2712,27.97,79,100,4.5,PG,1738874045
217,horta,38.5333,-28.6333,17.8,95,75,8.05,PT,1738874047
218,kamphaeng phet,16.25,99.5,23.48,59,15,0.94,TH,1738874049
219,tangalle,6.024,80.7911,23.47,83,38,5.22,LK,1738874051
220,bikenibeu village,1.3673,173.1241,26.98,89,40,4.63,KI,1738874052
221,kutum,14.2,24.6667,16.09,21,3,4.62,SD,1738874053
222,laminusa,5.5549,120.9136,26.97,79,99,1.4,PH,1738874054
223,georgetown,5.4112,100.3354,27.96,65,20,1.03,MY,1738874056
224,walvis bay,-22.9575,14.5053,17.94,79,4,2.86,NA,1738874057
225,smithers,54.7804,-127.1743,-12.82,72,75,1.54,CA,1738874058
226,acarau,-2.8856,-40.12,26.96,79,41,6.54,BR,1738874059
227,nyurba,63.2842,118.3319,-36.7,95,17,3.13,RU,1738874062
228,tsetserleg,47.475,101.4542,-22.02,95,33,1.53,MN,1738874063
229,east london,-33.0153,27.9116,20.85,83,100,6.95,ZA,1738874064
230,qamdo,31.1667,97.2333,-3.99,64,0,2.47,CN,1738874065
231,pacific grove,36.6177,-121.9166,16.06,84,100,17.88,US,1738874067
232,burao,9.5221,45.5336,19.52,52,94,2.21,SO,1738874068
233,tatui,-23.3556,-47.8569,26.77,81,99,3.6,BR,1738874069
234,yass,-34.8333,148.9167,22.32,59,0,1.13,AU,1738874071
235,severo-yeniseyskiy,60.3725,93.0408,-25.22,100,100,0.89,RU,1738874072
236,tamuin,21.9833,-98.75,30.5,50,36,3.59,MX,1738874073
237,donskoy,53.9711,38.3363,-4.02,65,79,3.4,RU,1738874074
238,isangel,-19.55,169.2667,27.36,87,100,8.2,VU,1738874076
239,igarka,67.4667,86.5833,-16.51,97,95,4.14,RU,1738874077
240,caleta de carquin,-11.0925,-77.6267,24.87,73,48,2.86,PE,1738874078
241,preobrazheniye,42.9019,133.9064,-13.01,67,100,4.11,RU,1738874080
242,anadyr,64.75,177.4833,-40.56,72,20,4.92,RU,1738874081
243,smara,26.7384,-11.6719,19.48,18,100,3.79,EH,1738874082
244,yemetsk,63.4721,41.7941,-10.1,97,52,2.17,RU,1738874083
245,tezu,27.9167,96.1667,17.34,54,81,1.65,IN,1738874085
246,karratha,-20.7377,116.8463,30.51,75,85,8.48,AU,1738874086
247,tolanaro,-25.0319,46.9987,26.04,83,75,4.12,MG,1738874087
248,burley,42.5357,-113.7928,4.98,42,0,3.6,US,1738874001
249,amga,60.8953,131.9608,-42.02,100,93,0.71,RU,1738874091
250,sakakah,29.9697,40.2064,8.76,56,1,7.77,SA,1738874093
251,beitbridge,-22.2167,30.0,28.68,41,25,7.89,ZW,1738874094
252,coquimbo,-29.9533,-71.3436,21.66,61,20,5.14,CL,1738874096
253,san patricio,28.017,-97.5169,28.97,57,39,5.82,US,1738874097
254,dolores,-36.3132,-57.6792,29.56,37,0,4.64,AR,1738874100
255,rawson,-43.3002,-65.1023,29.16,14,0,7.2,AR,1738874102
256,juan l. lacaze,-34.4333,-57.4167,23.6,68,0,3.35,UY,1738874104
257,plouzane,48.3833,-4.6167,5.5,75,20,8.23,FR,1738874105
258,umm al quwain city,25.5647,55.5552,21.18,76,100,5.76,AE,1738874106
259,riberalta,-10.9833,-66.1,32.11,62,75,0.0,BO,1738874108
260,keelung,25.1283,121.7419,14.97,92,100,6.72,TW,1738873924
261,taitung city,22.7583,121.1444,17.11,79,25,3.07,TW,1738874112
262,bengkulu,-3.8004,102.2655,23.48,88,53,2.15,ID,1738874115
263,bubaque,11.2833,-15.8333,24.7,69,31,6.15,GW,1738874116
264,grand falls-windsor,48.9332,-55.6649,-5.28,63,99,3.13,CA,1738874117
265,tazacorte,28.629,-17.9293,18.54,75,75,4.92,ES,1738874119
266,lompoc,34.6391,-120.4579,14.27,88,100,8.75,US,1738874124
267,uturoa,-16.7333,-151.4333,27.8,74,10,6.66,PF,1738874125
268,mount isa,-20.7333,139.5,24.87,94,100,2.06,AU,1738874126
269,polyarnyy,69.1989,33.4478,2.73,80,100,14.39,RU,1738874128
270,erenhot,43.6475,111.9767,-22.27,72,1,4.65,CN,1738874129
271,bosaso,11.2842,49.1816,22.85,76,72,1.45,SO,1738874131
272,taulaga,-11.0553,-171.0883,28.7,74,99,7.5,AS,1738874132
273,saint-philippe,-21.3585,55.7679,27.55,85,43,3.16,RE,1738874134
274,pyhajarvi,67.0701,27.2176,0.37,91,98,5.51,FI,1738874136
275,ushtobe,45.2514,77.9838,-13.95,88,75,2.46,KZ,1738874141
276,aquin,18.2833,-73.4,26.05,69,24,2.18,HT,1738874142
277,santiago de cuba,20.0247,-75.8219,28.06,69,40,5.66,CU,1738874144
278,ujae,8.9322,165.7642,26.98,79,100,9.11,MH,1738874145
279,alliance,40.9153,-81.1059,4.25,92,100,5.98,US,1738873889
280,longboat key,27.4125,-82.659,27.31,52,0,5.14,US,1738874148
281,hinton,53.4001,-117.5857,-8.48,79,99,0.61,CA,1738874149
282,jurilovca,44.7667,28.8667,-0.59,74,9,7.11,RO,1738874151
283,olyokminsk,60.3736,120.4264,-41.74,100,76,0.28,RU,1738874153
284,bamboo flat,11.7,92.7167,23.09,78,81,3.56,IN,1738874155
285,dunedin,-45.8742,170.5036,13.22,80,22,3.13,NZ,1738874157
286,magadan,59.5667,150.8,-22.43,72,6,4.47,RU,1738874158
287,santo domingo petapa,16.8181,-95.1403,28.81,53,100,5.5,MX,1738874159
288,imranli,39.8754,38.1136,-12.97,93,97,1.71,TR,1738874161
289,tortoli,39.9256,9.6572,9.52,91,100,0.45,IT,1738874162
290,qarazhal,48.0078,70.7903,-19.37,85,7,3.56,KZ,1738874164
291,yarmouth,41.7057,-70.2286,2.86,95,100,0.0,US,1738874165
292,korsor,55.3299,11.1386,2.59,88,0,4.55,DK,1738874169
293,ataq,14.5377,46.8319,15.39,64,0,5.25,YE,1738874170
294,aioun,16.6614,-9.6149,20.23,11,0,5.68,MR,1738874171
295,pangody,65.85,74.4859,-13.48,97,100,4.12,RU,1738874173
296,hermanus,-34.4187,19.2345,19.33,80,6,6.18,ZA,1738874174
297,taungdwingyi,20.0167,95.55,19.82,56,60,1.76,MM,1738874176
298,belel,7.05,14.4333,20.79,21,40,1.63,CM,1738874177
299,rosarito,32.3333,-117.0333,17.41,76,0,3.36,MX,1738874179
300,jaragua,-15.7569,-49.3344,26.32,75,81,1.91,BR,1738874180
301,pisco,-13.7,-76.2167,25.03,73,0,3.09,PE,1738874182
302,badger,64.8,-147.5333,-7.07,88,100,0.0,US,1738874183
303,mpongwe,-13.5091,28.155,17.75,97,100,1.3,ZM,1738874184
304,carnot,4.9409,15.8665,25.54,22,9,1.24,CF,1738874186
305,nuuk,64.1835,-51.7216,-10.66,79,75,12.35,GL,1738874187
306,emerald,-23.5333,148.1667,22.11,89,96,3.5,AU,1738874188
307,enid,36.3956,-97.8784,4.09,81,100,6.17,US,1738874083
308,palmas,-10.2128,-48.3603,33.93,43,40,2.57,BR,1738874193
309,weno,7.4515,151.8468,25.97,94,100,2.06,FM,1738874194
310,vershino-darasunskiy,52.35,115.5167,-29.7,93,91,2.09,RU,1738874195
311,hailar,49.2,119.7,-19.02,97,100,5.9,CN,1738873983
312,farafenni,13.5667,-15.6,28.32,13,99,3.51,GM,1738874198
313,alice springs,-23.7,133.8833,25.75,53,32,0.51,AU,1738874199
314,saldanha,-33.0117,17.9442,18.64,85,0,6.83,ZA,1738874201
315,guayaramerin,-10.8368,-65.3614,30.42,56,37,1.8,BO,1738874202
316,yatou,37.15,122.3833,-7.51,62,96,9.48,CN,1738874203
317,sandwip,22.4678,91.4561,20.77,64,5,4.7,BD,1738874204
318,dalnerechensk,45.9339,133.7225,-16.27,97,100,2.46,RU,1738874206
319,kochenevo,55.0218,82.202,-17.34,99,60,3.2,RU,1738874208
320,douglas,41.3,-96.167,5.92,44,0,4.12,US,1738874209
321,qaqortoq,60.7167,-46.0333,-15.25,69,100,5.05,GL,1738874141
322,guatrache,-37.6678,-63.5302,36.66,19,0,4.24,AR,1738874213
323,nizhneudinsk,54.9076,99.0276,-19.5,99,99,0.78,RU,1738874214
324,krasnokholmskiy,55.9873,55.0466,-18.01,100,99,1.45,RU,1738874216
325,barra,-11.0894,-43.1417,30.07,48,14,0.18,BR,1738874217
326,cide,41.8921,33.0044,0.63,93,96,0.91,TR,1738874218
327,brisas de zicatela,15.8369,-97.0419,31.29,55,40,4.12,MX,1738874219
328,gereida,11.2811,25.1414,23.4,12,6,7.23,SD,1738874222
329,tralee,52.2704,-9.7026,2.88,92,3,4.15,IE,1738874225
330,hong kong,22.2855,114.1577,16.81,71,100,6.71,HK,1738874227
331,ust'-ordynskiy,52.805,104.7508,-27.95,92,99,2.41,RU,1738874228
332,hastings,50.8552,0.5729,5.86,74,91,10.49,GB,1738874230
333,tete,-16.1564,33.5867,22.84,82,64,1.02,MZ,1738874231
334,labytnangi,66.6572,66.4183,-13.11,94,100,3.93,RU,1738874233
335,markovo,57.3206,107.0881,-38.27,100,49,1.07,RU,1738874235
336,mahanoro,-19.9,48.8,25.78,92,93,1.66,MG,1738874236
337,remire-montjoly,4.9167,-52.2667,27.02,89,100,3.6,GF,1738874237
338,batticaloa,7.7102,81.6924,25.8,75,36,3.59,LK,1738874239
339,saipan,15.1355,145.701,25.92,93,100,5.66,MP,1738874241
340,salalah,17.0151,54.0924,22.05,68,75,1.03,OM,1738874243
341,bodden town,19.2833,-81.25,28.32,74,40,6.69,KY,1738874244
342,catalao,-18.1658,-47.9464,23.54,77,93,2.06,BR,1738874245
343,ningde,26.6617,119.5228,8.97,94,100,1.36,CN,1738874247
344,arraial do cabo,-22.9661,-42.0278,29.98,61,20,7.2,BR,1738874248
345,dabat,12.9842,37.765,13.83,43,6,2.01,ET,1738874250
346,argo,37.6333,22.7333,6.53,74,62,1.75,GR,1738874251
347,sorong,-0.8833,131.25,26.17,84,100,4.83,ID,1738874252
348,jinghong,21.991,100.7341,13.37,60,42,1.39,CN,1738874254
349,luau,-10.7073,22.2247,17.47,98,99,0.99,AO,1738874256
350,protaras,35.0125,34.0583,7.22,60,0,3.13,CY,1738874259
351,pangoa,-12.1167,-73.0,26.92,72,100,1.79,PE,1738874260
352,mariehamn,60.0973,19.9348,-4.08,100,21,0.51,AX,1738874261
353,ceiba,18.4463,-66.3507,28.32,71,1,1.34,PR,1738874262
354,bandar lampung,-5.4254,105.258,22.49,96,100,3.05,ID,1738874264
355,lere,10.387,8.5726,22.26,13,5,2.75,NG,1738874265
356,yverdon-les-bains,46.7785,6.6412,1.24,96,100,3.16,CH,1738874267
357,sitka,57.0531,-135.33,3.94,56,20,1.54,US,1738874269
358,paris,48.8534,2.3488,5.6,80,100,7.2,FR,1738873909
359,kirkland lake,48.1446,-80.0377,-8.84,79,100,2.57,CA,1738874272
360,hotan,37.0997,79.9269,-3.07,46,69,1.05,CN,1738874273
361,guardo,42.7897,-4.8482,2.26,78,100,1.08,ES,1738874274
362,misratah,32.3754,15.0925,15.1,67,3,4.89,LY,1738874275
363,kathu,7.9178,98.3332,25.9,83,44,4.54,TH,1738874276
364,altpinar,39.2042,32.7478,-5.49,57,7,6.51,TR,1738874278
365,kemijarvi,66.7131,27.4306,-0.4,90,72,6.11,FI,1738874279
366,cruzeiro do sul,-29.5128,-51.9853,39.38,23,0,3.64,BR,1738874280
367,filey,54.21,-0.2892,5.44,18,0,1.34,GB,1738874283
368,namibe,-15.1961,12.1522,23.52,86,96,2.83,AO,1738874285
369,petauke,-14.2426,31.3253,18.46,94,100,1.62,ZM,1738874286
370,brookings,44.3114,-96.7984,-6.01,48,0,12.86,US,1738874289
371,princeville,45.7668,-61.2985,-3.6,63,100,0.89,CA,1738874049
372,carnarvon,-24.8667,113.6333,26.52,71,14,6.46,AU,1738874291
373,sampit,-2.5333,112.95,24.15,93,100,0.63,ID,1738874293
374,kaya,13.0917,-1.0844,27.86,11,100,3.46,BF,1738874294
375,san antonio oeste,-40.7319,-64.9477,28.06,27,0,4.35,AR,1738874296
376,lepe,37.2548,-7.2043,13.39,73,85,2.49,ES,1738874297
377,san andres,12.5847,-81.7006,29.01,74,20,7.72,CO,1738874301
378,fort mcmurray,56.7268,-111.381,-13.23,66,100,7.2,CA,1738874302
379,floro,61.5996,5.0328,5.98,70,52,7.2,NO,1738874303
380,chonchi,-42.6128,-73.8092,16.33,51,40,1.0,CL,1738874304
381,hibbing,47.4272,-92.9377,-16.06,54,100,6.17,US,1738874305
382,pascagoula,30.3658,-88.5561,25.58,78,100,2.57,US,1738874085
383,berezovyy,51.6667,135.7,-11.09,93,100,5.88,RU,1738874311
384,chaman,30.9236,66.4512,9.39,25,98,1.88,PK,1738874312
385,shinyanga,-3.6667,33.4333,20.19,90,100,2.28,TZ,1738874315
386,pariaman,-0.619,100.12,25.24,83,27,1.73,ID,1738874316
387,queenstown,-31.8976,26.8753,16.07,93,100,2.54,ZA,1738874317
388,oum hadjer,13.2954,19.6966,25.66,11,0,6.87,TD,1738874319
389,yeniseysk,58.4497,92.1703,-27.94,100,100,0.17,RU,1738874320
390,nowy targ,49.4778,20.0323,-1.48,96,100,1.28,PL,1738874321
391,mugia,43.1041,-9.2179,11.06,84,100,11.99,ES,1738874323
392,egilsstadir,65.2653,-14.3948,5.95,56,75,9.26,IS,1738874324
393,mary,37.0,62.5,10.69,29,100,4.69,TM,1738874325
394,levuka,50.1834,-105.4011,-17.15,71,20,8.75,CA,1738874329
395,palopo,-2.9996,120.1921,24.24,85,100,0.94,ID,1738874331
396,haiku-pauwela,20.9219,-156.3051,25.12,73,40,8.05,US,1738874332
397,quesada,10.3238,-84.4271,26.58,61,53,5.4,CR,1738874334
398,bondo,3.8146,23.6866,26.59,30,94,1.31,CD,1738874335
399,vorkuta,67.5,64.0,-9.83,94,100,7.86,RU,1738874336
400,elderslie,55.8333,-4.486,2.36,90,0,2.06,GB,1738874338
401,las palmas,28.4204,-14.0131,17.44,77,20,5.14,ES,1738874340
402,constantia,44.1833,28.65,-1.62,73,35,7.47,RO,1738874341
403,south hedland,-20.4089,118.5983,29.96,84,46,7.2,AU,1738874342
404,sinabang,2.4803,96.3801,25.78,82,97,1.13,ID,1738874344
405,ban phan don,17.1427,102.9726,24.39,99,12,1.1,TH,1738874345
406,fort st. john,56.2499,-120.8529,-12.06,92,75,1.54,CA,1738874347
407,klyuchi,52.2667,79.1667,-19.74,94,65,3.38,RU,1738874348
408,manismata,-2.4667,111.0333,24.57,93,100,1.59,ID,1738874350
409,nema,57.5067,50.5011,-17.01,100,91,0.19,RU,1738874352
410,zouerate,22.7187,-12.4521,18.17,19,2,5.97,MR,1738874353
411,angaur state,6.906,134.13,27.71,81,99,10.12,PW,1738874355
412,morehead city,34.7229,-76.726,15.02,83,20,4.12,US,1738874357
413,antalaha,-14.9003,50.2788,24.79,92,99,1.65,MG,1738874358
414,gorgan,36.8387,54.4348,7.98,87,100,2.06,IR,1738874359
415,kardla,58.9978,22.7492,2.99,81,100,2.06,EE,1738874360
416,happy valley-goose bay,53.3168,-60.3315,-9.83,52,75,3.09,CA,1738874362
417,leh,34.1667,77.5833,-25.87,68,5,2.16,IN,1738874363
418,baro,8.6,6.4167,30.18,15,2,0.86,NG,1738874364
419,christchurch,-43.5333,172.6333,15.51,78,100,0.51,NZ,1738874366
420,gornyye klyuchi,45.25,133.5,-17.7,98,100,1.53,RU,1738874367
421,troitskoye,52.9821,84.6757,-18.88,92,16,2.41,RU,1738874369
422,vondrozo,-22.8167,47.2833,20.4,98,100,1.22,MG,1738874371
423,bukama,-9.2,25.85,21.01,95,100,0.17,CD,1738874372
424,isla del bosque,22.7333,-105.85,25.28,45,0,4.45,MX,1738874374
425,glace bay,46.1969,-59.957,-6.59,61,75,4.12,CA,1738874376
426,labrador city,52.9463,-66.9114,-13.05,72,100,5.66,CA,1738874378
427,veraval,20.9,70.3667,20.92,30,0,5.75,IN,1738874379
428,kailua-kona,19.6406,-155.9956,26.27,63,0,2.57,US,1738874380
429,hadibu,12.65,54.0333,22.49,74,33,3.94,YE,1738874382
430,behror,27.8833,76.2833,9.61,32,3,2.75,IN,1738874384
431,ciudad insurgentes,25.2625,-111.7753,28.33,20,0,2.85,MX,1738874385
432,ola,59.5833,151.2833,-23.63,81,4,4.52,RU,1738874387
433,geraldton,-28.7667,114.6,21.23,88,100,0.51,AU,1738874388
434,luderitz,-26.6481,15.1594,17.74,73,18,6.51,NA,1738874389
435,el bolson,-41.9667,-71.5167,22.54,30,4,3.23,AR,1738874392
436,nagqu,31.5,92.0,-9.37,11,0,3.02,CN,1738874396
437,blackwater,-23.5833,148.8833,21.5,100,93,3.69,AU,1738874397
438,ploneour-lanvern,47.9,-4.2833,4.18,81,40,3.6,FR,1738874398
439,new norfolk,-42.7826,147.0587,15.95,70,100,0.77,AU,1738874399
440,guiuan,11.0333,125.7247,25.86,88,100,3.22,PH,1738874401
441,el calafate,-50.3408,-72.2768,11.57,44,2,8.16,AR,1738874402
442,waingapu,-9.6567,120.2641,25.06,85,100,3.86,ID,1738874404
443,mil'kovo,55.6078,37.7956,-1.48,62,85,3.0,RU,1738874406
444,vadso,70.0744,29.7487,4.09,75,75,12.35,NO,1738874407
445,ongjin,37.9347,125.3619,-7.07,89,100,9.76,KP,1738874409
446,san julian,21.0167,-102.1667,25.49,16,0,2.6,MX,1738874410
447,natal,-5.795,-35.2094,25.12,94,100,3.09,BR,1738874411
448,lamba,6.3597,124.8122,22.81,96,91,0.7,PH,1738874412
449,flekkefjord,58.2971,6.6607,-1.91,88,5,1.67,NO,1738874417
450,selkirk,50.1436,-96.8845,-12.12,75,100,4.02,CA,1738874419
451,saint-pierre,-21.3393,55.4781,26.82,78,0,1.54,RE,1738874420
452,lemvig,56.5486,8.3102,1.87,72,2,4.31,DK,1738874422
453,zhosaly,45.4878,64.0781,-9.26,76,0,6.24,KZ,1738874424
454,i-n-salah,27.1935,2.4607,14.84,42,0,6.59,DZ,1738874425
455,prachuap khiri khan,12.2167,99.75,19.64,85,64,1.0,TH,1738874427
456,joigny,47.9829,3.401,2.67,86,100,5.93,FR,1738874428
457,nellore,14.4333,79.9667,20.03,91,6,2.36,IN,1738874430
458,norrtalje,59.758,18.705,-1.66,81,34,1.4,SE,1738874431
459,chanute,37.6792,-95.4572,8.12,45,0,5.48,US,1738874162
460,menaka,15.9182,2.4022,27.29,11,100,3.25,ML,1738874433
461,wewak,-3.5534,143.6268,26.27,83,100,3.51,PG,1738874436
462,nemuro,43.3236,145.575,-3.79,68,6,6.86,JP,1738874211
463,gering,41.8258,-103.6605,7.88,22,0,0.0,US,1738874438
464,ascencion de guarayos,-15.8963,-63.1881,28.13,85,45,1.08,BO,1738874439
465,pampas,-12.4,-74.9,11.45,66,99,3.37,PE,1738874441
466,mantua,45.1667,10.7833,4.99,91,0,0.89,IT,1738874444
467,stephenville,32.2207,-98.2023,29.07,40,0,3.09,US,1738874445
468,stony plain,53.5334,-114.0021,-7.92,79,0,6.17,CA,1738874447
469,zorgo,12.2489,-0.6158,28.78,9,72,3.84,BF,1738874448
470,paracuru,-3.41,-39.0306,25.93,85,83,6.13,BR,1738874449
471,boguchany,58.3814,97.4531,-21.3,100,100,0.34,RU,1738874453
472,coahuayana de hidalgo,18.7,-103.6583,30.66,50,8,3.25,MX,1738874455
473,mercedes,-34.6515,-59.4307,31.55,41,0,3.44,AR,1738874456
474,kapoeta,4.7717,33.5903,29.92,25,99,3.39,SS,1738874457
475,cedral,23.8,-100.7333,25.14,20,0,2.12,MX,1738874459
476,port macquarie,-31.4333,152.9167,21.15,97,18,0.45,AU,1738874460
477,lubao,14.9167,120.55,24.84,86,100,3.63,PH,1738874461
478,as sulayyil,20.4607,45.5779,20.79,9,12,2.32,SA,1738874462
479,watertown,42.3709,-71.1828,1.17,88,100,3.09,US,1738874464
480,vicosa,-20.7539,-42.8819,23.05,74,62,1.57,BR,1738874466
481,abha,18.2164,42.5053,16.14,13,0,6.69,SA,1738874468
482,charters towers,-20.1,146.2667,23.1,96,100,1.76,AU,1738874470
483,pocoes,-14.5297,-40.3653,23.21,71,100,3.23,BR,1738874471
484,castillos,-34.1667,-53.8333,23.35,65,30,5.04,UY,1738874473
485,vila franca do campo,37.7167,-25.4333,18.27,99,60,4.08,PT,1738874474
486,kiunga,-6.1219,141.2906,22.2,98,100,0.88,PG,1738874475
487,kindu,-2.95,25.95,21.11,100,100,1.14,CD,1738874477
488,ambodifotatra,-16.9833,49.85,27.46,81,30,1.85,MG,1738874478
489,safi,32.1667,-8.8333,12.11,71,0,2.07,MA,1738874479
490,shingu,33.7333,135.9833,-0.62,61,68,2.75,JP,1738874480
491,hargeysa,9.56,44.065,15.83,80,58,1.23,SO,1738874482
492,alofi,-19.0595,-169.9187,27.94,78,20,2.06,NU,1738874483
493,berdigestyakh,62.0989,126.6992,-43.61,100,82,1.09,RU,1738874485
494,manadhoo,5.7667,73.3833,27.72,71,7,8.0,MV,1738874488
495,shatrovo,56.5167,64.6333,-6.98,97,100,1.17,RU,1738874489
496,canto del llano,8.1761,-80.973,28.84,39,45,4.92,PA,1738874491
497,lovech,43.1333,24.7167,1.13,73,9,3.25,BG,1738874495
498,juan griego,11.0817,-63.9655,27.1,72,70,7.2,VE,1738874496
499,sayalkudi,9.1833,78.45,23.97,77,28,3.86,IN,1738874498
500,yigo village,13.5361,144.8886,26.16,84,40,7.72,GU,1738874499
501,knysna,-34.0363,23.0471,19.25,87,1,3.32,ZA,1738874500
502,ranchettes,41.2186,-104.7903,3.62,49,0,5.66,US,1738874501
503,midvagur,62.0511,-7.1939,9.46,76,100,8.75,FO,1738874504
504,copiapo,-27.3667,-70.3333,26.1,44,1,4.43,CL,1738874506
505,zambezi,-13.5432,23.1047,18.71,97,100,0.8,ZM,1738874507
506,altai,46.3722,96.2583,-19.86,63,0,0.47,MN,1738874508
507,kuta,-8.7233,115.1723,27.97,89,40,4.63,ID,1738874510
508,machico,32.7,-16.7667,17.35,63,40,3.6,PT,1738874511
509,hovd,48.0056,91.6419,-20.9,78,1,1.68,MN,1738874513
510,voznesenskaya,44.5527,41.0318,-2.3,81,92,6.4,RU,1738874514
511,anamosa,42.1083,-91.2852,2.38,52,0,8.23,US,1738874515
512,crixas,-14.5489,-49.9692,27.81,69,49,1.18,BR,1738874516
513,bereket,39.2446,55.5154,6.85,51,83,4.1,TM,1738874518
514,darwin,-12.4611,130.8418,28.99,84,75,5.66,AU,1738874519
515,taoudenni,22.6783,-3.9836,16.41,21,0,5.04,ML,1738874521
516,leava,-14.3,-178.1667,28.85,67,37,5.32,WF,1738874522
517,bechar,31.6167,-2.2167,10.18,40,20,3.09,DZ,1738874523
518,ayorou,14.7308,0.9174,27.26,10,99,3.89,NE,1738874525
519,fisterra,42.9049,-9.2629,11.8,85,100,12.6,ES,1738874526
520,tucuma,-0.1833,-50.05,26.05,88,89,3.09,BR,1738874527
521,alto araguaia,-17.3147,-53.2153,25.27,74,95,2.69,BR,1738874529
522,guiratinga,-16.3494,-53.7583,25.93,70,100,0.81,BR,1738874530
523,ar rutbah,33.0381,40.2848,4.55,78,72,8.42,IQ,1738874531
524,timbuktu,16.7735,-3.0074,22.41,15,10,6.75,ML,1738874533
525,gurupi,-11.7292,-49.0686,28.27,69,94,1.8,BR,1738874534
526,knjazevac,43.5648,22.2502,0.5,79,12,1.65,RS,1738874536
527,nabire,-3.3667,135.4833,24.31,91,99,0.89,ID,1738874538
528,mirpur sakro,24.5474,67.6277,17.96,10,5,4.37,PK,1738874540
529,mountain home,43.133,-115.6912,2.86,61,75,4.12,US,1738874544
530,oltinko'l,40.8011,72.1634,2.03,54,2,2.85,UZ,1738874545
531,kokpekty,48.75,82.4,-24.24,92,65,1.5,KZ,1738874547
532,mezhdurechenskiy,59.6,65.9333,-7.05,93,98,2.65,RU,1738874549
533,yelizovo,53.1873,158.3805,-3.92,54,40,2.0,RU,1738874550
534,amahai,-3.3333,128.9167,25.74,81,92,2.68,ID,1738874552
535,arar,30.9753,41.0381,7.01,57,0,7.72,SA,1738874554
536,berezovo,63.9381,65.0419,-15.66,97,84,2.91,RU,1738874556
537,dorchester,33.1002,-80.3831,25.66,67,75,3.09,US,1738874557
538,fortaleza,-3.7227,-38.5247,26.79,89,100,3.09,BR,1738874558
539,kapuskasing,49.4169,-82.4331,-5.95,86,100,5.14,CA,1738874560
540,yanbu,24.0891,38.0637,19.02,30,0,3.09,SA,1738874561
541,palmerston,-12.486,130.9833,28.99,84,75,5.66,AU,1738874562
542,gaspe,48.8334,-64.4819,-5.88,53,100,5.14,CA,1738874568
543,abadeh,31.1608,52.6506,3.9,63,15,19.29,IR,1738874570
544,pau brasil,-15.4642,-39.6511,26.09,62,91,3.49,BR,1738874574
545,choibalsan,48.0667,114.5,-21.83,73,64,6.09,MN,1738874576
546,alamosa,37.4695,-105.87,15.99,7,0,5.66,US,1738874577
547,portland,45.5234,-122.6762,6.2,83,75,2.57,US,1738874220
548,sassandra,4.95,-6.0833,26.76,86,1,4.31,CI,1738874580
549,filadelfia,39.9523,-75.1638,3.64,95,100,7.2,US,1738874582
550,wolow,51.3366,16.6443,2.75,99,100,2.53,PL,1738874584
551,laibin,23.7,109.2667,9.2,79,100,5.99,CN,1738874587
552,lata,40.1629,-8.3327,7.02,77,100,1.26,PT,1738874588
553,sylva,58.0348,56.7635,-14.52,100,100,0.54,RU,1738874589
554,zayed city,24.3768,54.589,24.44,40,0,2.06,AE,1738874591
555,forster,-32.1667,152.5167,19.65,100,10,1.97,AU,1738874592
556,malabar,-33.9667,151.25,22.16,85,0,2.06,AU,1738874593
557,morondava,-20.2833,44.2833,26.33,85,90,5.27,MG,1738874594
558,jiwani,25.05,61.7417,20.95,52,100,3.11,PK,1738874596
559,peace river,56.2501,-117.286,-6.83,67,100,3.6,CA,1738874597
560,herkimer,43.0256,-74.986,1.65,85,100,6.1,US,1738874599
561,kale,50.9581,1.8521,5.76,77,100,9.68,FR,1738874600
562,kuruman,-27.4524,23.4325,22.92,48,25,9.58,ZA,1738874602
563,lensk,60.7253,114.9278,-36.45,99,24,1.56,RU,1738874603
564,lupane,-18.9315,27.807,21.57,63,37,1.46,ZW,1738874605
565,yanchep,-31.55,115.6833,20.85,71,3,4.11,AU,1738874606
566,uyuni,-20.4597,-66.825,17.38,25,9,8.69,BO,1738874607
567,bulungu,-4.55,18.6,22.99,84,76,0.86,CD,1738874609
568,saynshand,44.8824,110.1163,-25.07,79,0,3.06,MN,1738874610
569,liperi,62.5333,29.3667,-1.74,100,100,2.57,FI,1738874611
570,celestun,20.8667,-90.4,27.66,65,0,6.2,MX,1738874612
571,huarmey,-10.0681,-78.1522,24.13,75,42,2.1,PE,1738874615
572,koesan,36.8108,127.7947,-5.45,97,98,1.7,KR,1738874617
573,rabaul,-4.1967,152.1721,27.99,75,100,3.21,PG,1738874618
574,cabedelo,-6.9811,-34.8339,26.37,82,100,4.39,BR,1738874622
575,ilhabela,-23.7781,-45.3581,27.51,81,2,1.69,BR,1738874623
576,miles city,46.4083,-105.8406,-11.46,48,0,0.0,US,1738874625
577,las lomitas,-24.7096,-60.593,39.32,23,70,5.34,AR,1738874626
578,nikolayevsk-on-amure,53.1406,140.73,-6.15,94,100,6.09,RU,1738874627
579,eyl,7.9803,49.8164,23.28,80,37,7.17,SO,1738874630
580,emkhomazi,-30.2067,30.7978,23.02,90,100,4.37,ZA,1738874632
581,sao tome,0.3365,6.7273,27.63,81,100,2.37,ST,1738874633
582,la passe,45.5549,-0.8967,4.72,82,97,6.06,FR,1738874635
583,pader,3.05,33.2167,26.28,30,98,2.79,UG,1738874637
584,jamshedpur,22.8,86.1833,20.48,13,0,1.74,IN,1738874638
585,sola,-13.8833,167.55,27.62,75,99,5.85,VU,1738874640
586,oranjemund,-28.55,16.4333,17.05,86,0,2.71,NA,1738874641
587,sanctuary point,-35.1114,150.629,21.14,78,6,3.16,AU,1738874642
588,zhizdra,53.746,34.7395,-2.63,87,100,2.35,RU,1738874643
589,howard springs,-12.497,131.047,28.95,84,100,3.58,AU,1738874645
590,nishinoomote,30.7333,131.0,9.13,75,100,8.41,JP,1738874647
591,yalta,44.5,34.1667,1.23,78,100,4.45,UA,1738874648
592,soio,-6.1349,12.3689,27.27,80,100,0.94,AO,1738874649
593,olinda,-8.0089,-34.8553,27.85,78,75,4.12,BR,1738874651
594,varna,43.2167,27.9167,-0.92,74,20,4.12,BG,1738874501
595,greymouth,-42.4667,171.2,20.29,67,0,1.38,NZ,1738874653
